[
  {
    "store_name": "Ralphs",
    "address": "9040 W Sunset Blvd, West Hollywood, CA 90069",
    "lat": 34.0903,
    "lon": -118.389,
    "retailer": "Ralphs"
  },
  {
    "store_name": "Ralphs",
    "address": "645 W 9th St, Los Angeles, CA 90015",
    "lat": 34.0452,
    "lon": -118.2612,
    "retailer": "Ralphs"
  },
  {
    "store_name": "Ralphs",
    "address": "1730 Ocean Park Blvd, Santa Monica, CA 90405",
    "lat": 34.0098,
    "lon": -118.4692,
    "retailer": "Ralphs"
  },
  {
    "store_name": "Ralphs",
    "address": "1100 Glendon Ave, Los Angeles, CA 90024",
    "lat": 34.0602,
    "lon": -118.4446,
    "retailer": "Ralphs"
  },
  {
    "store_name": "Ralphs",
    "address": "10861 Weyburn Ave, Los Angeles, CA 90024",
    "lat": 34.0588,
    "lon": -118.4442,
    "retailer": "Ralphs"
  },
  {
    "store_name": "Ralphs",
    "address": "3540 S Sepulveda Blvd, Los Angeles, CA 90034",
    "lat": 34.0189,
    "lon": -118.4241,
    "retailer": "Ralphs"
  },
  {
    "store_name": "Ralphs",
    "address": "11727 W Olympic Blvd, Los Angeles, CA 90064",
    "lat": 34.0359,
    "lon": -118.4556,
    "retailer": "Ralphs"
  },
  {
    "store_name": "Ralphs",
    "address": "851 S Vermont Ave, Los Angeles, CA 90005",
    "lat": 34.0576,
    "lon": -118.2917,
    "retailer": "Ralphs"
  },
  {
    "store_name": "Ralphs",
    "address": "3250 Wilshire Blvd, Los Angeles, CA 90010",
    "lat": 34.0621,
    "lon": -118.2996,
    "retailer": "Ralphs"
  },
  {
    "store_name": "Ralphs",
    "address": "18040 Chatsworth St, Granada Hills, CA 91344",
    "lat": 34.2592,
    "lon": -118.5253,
    "retailer": "Ralphs"
  },
  {
    "store_name": "Ralphs",
    "address": "11819 Wilshire Blvd, Los Angeles, CA 90025",
    "lat": 34.0426,
    "lon": -118.4579,
    "retailer": "Ralphs"
  },
  {
    "store_name": "Ralphs",
    "address": "7257 W Sunset Blvd, Los Angeles, CA 90046",
    "lat": 34.0977,
    "lon": -118.3461,
    "retailer": "Ralphs"
  },
  {
    "store_name": "Ralphs",
    "address": "6290 W Sunset Blvd, Los Angeles, CA 90028",
    "lat": 34.0978,
    "lon": -118.3258,
    "retailer": "Ralphs"
  },
  {
    "store_name": "Ralphs",
    "address": "368 S Fairfax Ave, Los Angeles, CA 90036",
    "lat": 34.0695,
    "lon": -118.3617,
    "retailer": "Ralphs"
  },
  {
    "store_name": "Ralphs",
    "address": "535 N Victory Blvd, Burbank, CA 91502",
    "lat": 34.1724,
    "lon": -118.3201,
    "retailer": "Ralphs"
  },
  {
    "store_name": "Ralphs",
    "address": "1730 E Colorado Blvd, Pasadena, CA 91106",
    "lat": 34.1467,
    "lon": -118.1177,
    "retailer": "Ralphs"
  },
  {
    "store_name": "Ralphs",
    "address": "7257 Melrose Ave, Los Angeles, CA 90046",
    "lat": 34.0838,
    "lon": -118.3461,
    "retailer": "Ralphs"
  },
  {
    "store_name": "Ralphs",
    "address": "4760 Santa Monica Blvd, Los Angeles, CA 90029",
    "lat": 34.0914,
    "lon": -118.2931,
    "retailer": "Ralphs"
  },
  {
    "store_name": "Ralphs",
    "address": "5429 Hollywood Blvd, Los Angeles, CA 90027",
    "lat": 34.1016,
    "lon": -118.3069,
    "retailer": "Ralphs"
  },
  {
    "store_name": "Ralphs",
    "address": "12400 W Washington Blvd, Los Angeles, CA 90066",
    "lat": 34.0034,
    "lon": -118.4367,
    "retailer": "Ralphs"
  },
  {
    "store_name": "Ralphs",
    "address": "1730 Westwood Blvd, Los Angeles, CA 90024",
    "lat": 34.0534,
    "lon": -118.4412,
    "retailer": "Ralphs"
  },
  {
    "store_name": "Ralphs",
    "address": "1644 Cloverfield Blvd, Santa Monica, CA 90404",
    "lat": 34.0234,
    "lon": -118.4789,
    "retailer": "Ralphs"
  },
  {
    "store_name": "Ralphs",
    "address": "3527 S La Cienega Blvd, Los Angeles, CA 90016",
    "lat": 34.0189,
    "lon": -118.3767,
    "retailer": "Ralphs"
  },
  {
    "store_name": "Ralphs",
    "address": "4311 Lincoln Blvd, Marina del Rey, CA 90292",
    "lat": 33.9812,
    "lon": -118.4456,
    "retailer": "Ralphs"
  },
  {
    "store_name": "Ralphs",
    "address": "4320 Van Nuys Blvd, Sherman Oaks, CA 91403",
    "lat": 34.1523,
    "lon": -118.4489,
    "retailer": "Ralphs"
  },
  {
    "store_name": "Ralphs",
    "address": "18080 Ventura Blvd, Encino, CA 91316",
    "lat": 34.1589,
    "lon": -118.5234,
    "retailer": "Ralphs"
  },
  {
    "store_name": "Ralphs",
    "address": "15120 Ventura Blvd, Sherman Oaks, CA 91403",
    "lat": 34.1534,
    "lon": -118.4723,
    "retailer": "Ralphs"
  },
  {
    "store_name": "Ralphs",
    "address": "3330 Sepulveda Blvd, Los Angeles, CA 90034",
    "lat": 34.1333861,
    "lon": -118.4801837,
    "retailer": "Ralphs",
    "_fixed": true,
    "_original_coords": {
      "lat": 34.0203,
      "lon": -118.4235
    }
  },
  {
    "store_name": "Ralphs",
    "address": "9616 Culver Blvd, Culver City, CA 90232",
    "lat": 34.0228496,
    "lon": -118.3950497,
    "retailer": "Ralphs",
    "_fixed": true,
    "_original_coords": {
      "lat": 34.0033,
      "lon": -118.3989
    }
  },
  {
    "store_name": "Ralphs",
    "address": "3015 Main St, Santa Monica, CA 90405",
    "lat": 33.9984464,
    "lon": -118.4798516,
    "retailer": "Ralphs",
    "_fixed": true,
    "_original_coords": {
      "lat": 34.0106,
      "lon": -118.4692
    }
  },
  {
    "store_name": "Ralphs",
    "address": "2035 Lincoln Blvd, Santa Monica, CA 90405",
    "lat": 34.0025542,
    "lon": -118.4703191,
    "retailer": "Ralphs",
    "_fixed": true,
    "_original_coords": {
      "lat": 34.0165,
      "lon": -118.4742
    }
  },
  {
    "store_name": "Ralphs",
    "address": "19725 Rinaldi St, Porter Ranch, CA 91326",
    "lat": 34.2756331,
    "lon": -118.562928,
    "retailer": "Ralphs",
    "_fixed": true,
    "_original_coords": {
      "lat": 34.2685,
      "lon": -118.5489
    }
  },
  {
    "store_name": "Ralphs",
    "address": "1730 S Catalina Ave, Redondo Beach, CA 90277",
    "lat": 33.8154624,
    "lon": -118.3866374,
    "retailer": "Ralphs",
    "_fixed": true,
    "_original_coords": {
      "lat": 33.8368,
      "lon": -118.3889
    }
  },
  {
    "store_name": "Ralphs",
    "address": "23371 Mulholland Dr, Woodland Hills, CA 91364",
    "lat": 34.1576277,
    "lon": -118.6352901,
    "retailer": "Ralphs",
    "_fixed": true,
    "_original_coords": {
      "lat": 34.1317,
      "lon": -118.6063
    }
  },
  {
    "store_name": "Ralphs",
    "address": "3464 W 3rd St, Los Angeles, CA 90020",
    "lat": 34.068971,
    "lon": -118.2908191,
    "retailer": "Ralphs",
    "_fixed": true,
    "_original_coords": {
      "lat": 34.0711,
      "lon": -118.301
    }
  },
  {
    "store_name": "Ralphs",
    "address": "2041 Sawtelle Blvd, Los Angeles, CA 90025",
    "lat": 34.0403392,
    "lon": -118.4432376,
    "retailer": "Ralphs",
    "_fixed": true,
    "_original_coords": {
      "lat": 34.0366,
      "lon": -118.4564
    }
  },
  {
    "store_name": "Ralphs",
    "address": "13050 San Vicente Blvd, Los Angeles, CA 90049",
    "lat": 34.0484442,
    "lon": -118.4905248,
    "retailer": "Ralphs",
    "_fixed": true,
    "_original_coords": {
      "lat": 34.0456,
      "lon": -118.4734
    }
  },
  {
    "store_name": "Ralphs",
    "address": "10861 Venice Blvd, Los Angeles, CA 90034",
    "lat": 34.0168901,
    "lon": -118.4106821,
    "retailer": "Ralphs",
    "_fixed": true,
    "_original_coords": {
      "lat": 34.0178,
      "lon": -118.4234
    }
  },
  {
    "store_name": "Ralphs",
    "address": "17380 Sunset Blvd, Pacific Palisades, CA 90272",
    "lat": 34.0392752,
    "lon": -118.5539879,
    "retailer": "Ralphs",
    "_fixed": true,
    "_original_coords": {
      "lat": 34.0512,
      "lon": -118.5289
    }
  }
]