[
  {
    "store_name": "Ralphs",
    "address": "9040 W Sunset Blvd, West Hollywood, CA 90069",
    "lat": 34.0905,
    "lon": -118.3891,
    "retailer": "Ralphs"
  },
  {
    "store_name": "Ralphs",
    "address": "645 W 9th St, Los Angeles, CA 90015",
    "lat": 34.0454,
    "lon": -118.2605,
    "retailer": "Ralphs"
  },
  {
    "store_name": "Ralphs",
    "address": "3330 Sepulveda Blvd, Los Angeles, CA 90034",
    "lat": 34.1334,
    "lon": -118.4802,
    "retailer": "Ralphs"
  },
  {
    "store_name": "Ralphs",
    "address": "1730 Ocean Park Blvd, Santa Monica, CA 90405",
    "lat": 34.0126,
    "lon": -118.4664,
    "retailer": "Ralphs"
  },
  {
    "store_name": "Ralphs",
    "address": "1100 Glendon Ave, Los Angeles, CA 90024",
    "lat": 34.0606,
    "lon": -118.4435,
    "retailer": "Ralphs"
  },
  {
    "store_name": "Ralphs",
    "address": "10861 Weyburn Ave, Los Angeles, CA 90024",
    "lat": 34.0627,
    "lon": -118.4437,
    "retailer": "Ralphs"
  },
  {
    "store_name": "Ralphs",
    "address": "9616 Culver Blvd, Culver City, CA 90232",
    "lat": 34.0228,
    "lon": -118.395,
    "retailer": "Ralphs"
  },
  {
    "store_name": "Ralphs",
    "address": "3540 S Sepulveda Blvd, Los Angeles, CA 90034",
    "lat": 34.0188,
    "lon": -118.4218,
    "retailer": "Ralphs"
  },
  {
    "store_name": "Ralphs",
    "address": "11727 W Olympic Blvd, Los Angeles, CA 90064",
    "lat": 34.035,
    "lon": -118.4493,
    "retailer": "Ralphs"
  },
  {
    "store_name": "Ralphs",
    "address": "851 S Vermont Ave, Los Angeles, CA 90005",
    "lat": 34.0573,
    "lon": -118.2917,
    "retailer": "Ralphs"
  },
  {
    "store_name": "Ralphs",
    "address": "3015 Main St, Santa Monica, CA 90405",
    "lat": 33.9984,
    "lon": -118.4799,
    "retailer": "Ralphs"
  },
  {
    "store_name": "Ralphs",
    "address": "3250 Wilshire Blvd, Los Angeles, CA 90010",
    "lat": 34.061,
    "lon": -118.2933,
    "retailer": "Ralphs"
  },
  {
    "store_name": "Ralphs",
    "address": "18040 Chatsworth St, Granada Hills, CA 91344",
    "lat": 34.2633,
    "lon": -118.5257,
    "retailer": "Ralphs"
  },
  {
    "store_name": "Ralphs",
    "address": "2035 Lincoln Blvd, Santa Monica, CA 90405",
    "lat": 34.0026,
    "lon": -118.4703,
    "retailer": "Ralphs"
  },
  {
    "store_name": "Ralphs",
    "address": "11819 Wilshire Blvd, Los Angeles, CA 90025",
    "lat": 34.048,
    "lon": -118.4632,
    "retailer": "Ralphs"
  },
  {
    "store_name": "Ralphs",
    "address": "7257 W Sunset Blvd, Los Angeles, CA 90046",
    "lat": 34.0987,
    "lon": -118.3484,
    "retailer": "Ralphs"
  },
  {
    "store_name": "Ralphs",
    "address": "6290 W Sunset Blvd, Los Angeles, CA 90028",
    "lat": 34.0974,
    "lon": -118.3265,
    "retailer": "Ralphs"
  },
  {
    "store_name": "Ralphs",
    "address": "368 S Fairfax Ave, Los Angeles, CA 90036",
    "lat": 34.0703,
    "lon": -118.3613,
    "retailer": "Ralphs"
  },
  {
    "store_name": "Ralphs",
    "address": "3300 W 6th St, Los Angeles, CA 90020",
    "lat": 34.0634,
    "lon": -118.2946,
    "retailer": "Ralphs"
  },
  {
    "store_name": "Ralphs",
    "address": "19725 Rinaldi St, Porter Ranch, CA 91326",
    "lat": 34.2756,
    "lon": -118.5629,
    "retailer": "Ralphs"
  },
  {
    "store_name": "Ralphs",
    "address": "1730 S Catalina Ave, Redondo Beach, CA 90277",
    "lat": 33.8155,
    "lon": -118.3866,
    "retailer": "Ralphs"
  },
  {
    "store_name": "Ralphs",
    "address": "23371 Mulholland Dr, Woodland Hills, CA 91364",
    "lat": 34.1576,
    "lon": -118.6353,
    "retailer": "Ralphs"
  },
  {
    "store_name": "Ralphs",
    "address": "535 N Victory Blvd, Burbank, CA 91502",
    "lat": 34.1783,
    "lon": -118.3189,
    "retailer": "Ralphs"
  },
  {
    "store_name": "Ralphs",
    "address": "1730 E Colorado Blvd, Pasadena, CA 91106",
    "lat": 34.1459,
    "lon": -118.1143,
    "retailer": "Ralphs"
  },
  {
    "store_name": "Ralphs",
    "address": "3464 W 3rd St, Los Angeles, CA 90020",
    "lat": 34.069,
    "lon": -118.2908,
    "retailer": "Ralphs"
  },
  {
    "store_name": "Ralphs",
    "address": "7257 Melrose Ave, Los Angeles, CA 90046",
    "lat": 34.0837,
    "lon": -118.3478,
    "retailer": "Ralphs"
  },
  {
    "store_name": "Ralphs",
    "address": "4760 Santa Monica Blvd, Los Angeles, CA 90029",
    "lat": 34.0908,
    "lon": -118.2932,
    "retailer": "Ralphs"
  },
  {
    "store_name": "Ralphs",
    "address": "5429 Hollywood Blvd, Los Angeles, CA 90027",
    "lat": 34.1023,
    "lon": -118.3081,
    "retailer": "Ralphs"
  },
  {
    "store_name": "Ralphs",
    "address": "2041 Sawtelle Blvd, Los Angeles, CA 90025",
    "lat": 34.0403,
    "lon": -118.4432,
    "retailer": "Ralphs"
  },
  {
    "store_name": "Ralphs",
    "address": "12400 W Washington Blvd, Los Angeles, CA 90066",
    "lat": 33.9968,
    "lon": -118.4285,
    "retailer": "Ralphs"
  },
  {
    "store_name": "Ralphs",
    "address": "1730 Westwood Blvd, Los Angeles, CA 90024",
    "lat": 34.0512,
    "lon": -118.4381,
    "retailer": "Ralphs"
  },
  {
    "store_name": "Ralphs",
    "address": "13050 San Vicente Blvd, Los Angeles, CA 90049",
    "lat": 34.0484,
    "lon": -118.4905,
    "retailer": "Ralphs"
  },
  {
    "store_name": "Ralphs",
    "address": "1644 Cloverfield Blvd, Santa Monica, CA 90404",
    "lat": 34.0271,
    "lon": -118.4739,
    "retailer": "Ralphs"
  },
  {
    "store_name": "Ralphs",
    "address": "3527 S La Cienega Blvd, Los Angeles, CA 90016",
    "lat": 34.0228,
    "lon": -118.3722,
    "retailer": "Ralphs"
  },
  {
    "store_name": "Ralphs",
    "address": "4311 Lincoln Blvd, Marina del Rey, CA 90292",
    "lat": 33.9843,
    "lon": -118.4432,
    "retailer": "Ralphs"
  },
  {
    "store_name": "Ralphs",
    "address": "10861 Venice Blvd, Los Angeles, CA 90034",
    "lat": 34.0169,
    "lon": -118.4107,
    "retailer": "Ralphs"
  },
  {
    "store_name": "Ralphs",
    "address": "4320 Van Nuys Blvd, Sherman Oaks, CA 91403",
    "lat": 34.1496,
    "lon": -118.4489,
    "retailer": "Ralphs"
  },
  {
    "store_name": "Ralphs",
    "address": "18080 Ventura Blvd, Encino, CA 91316",
    "lat": 34.1652,
    "lon": -118.5267,
    "retailer": "Ralphs"
  },
  {
    "store_name": "Ralphs",
    "address": "17380 Sunset Blvd, Pacific Palisades, CA 90272",
    "lat": 34.0393,
    "lon": -118.554,
    "retailer": "Ralphs"
  },
  {
    "store_name": "Ralphs",
    "address": "15120 Ventura Blvd, Sherman Oaks, CA 91403",
    "lat": 34.1531,
    "lon": -118.4623,
    "retailer": "Ralphs"
  }
]