[
  {
    "store_name": "Walmart Supercenter",
    "address": "2150 Hawthorne Blvd, Redondo Beach, CA 90278",
    "lat": 33.8736,
    "lon": -118.3527,
    "retailer": "Walmart"
  },
  {
    "store_name": "Walmart Supercenter",
    "address": "3535 E Olympic Blvd, Los Angeles, CA 90023",
    "lat": 34.0217,
    "lon": -118.1946,
    "retailer": "Walmart"
  },
  {
    "store_name": "Walmart Supercenter",
    "address": "1301 N Victory Pl, Burbank, CA 91502",
    "lat": 34.1808,
    "lon": -118.3090,
    "retailer": "Walmart"
  },
  {
    "store_name": "Walmart Supercenter",
    "address": "1655 Town Center Dr, Chula Vista, CA 91910",
    "lat": 32.6401,
    "lon": -117.0842,
    "retailer": "Walmart"
  },
  {
    "store_name": "Walmart Supercenter",
    "address": "3255 Sports Arena Blvd, San Diego, CA 92110",
    "lat": 32.7516,
    "lon": -117.2045,
    "retailer": "Walmart"
  },
  {
    "store_name": "Walmart Supercenter",
    "address": "555 9th St, San Francisco, CA 94103",
    "lat": 37.7749,
    "lon": -122.4194,
    "retailer": "Walmart"
  },
  {
    "store_name": "Walmart Supercenter",
    "address": "1150 El Camino Real, San Bruno, CA 94066",
    "lat": 37.6348,
    "lon": -122.4207,
    "retailer": "Walmart"
  },
  {
    "store_name": "Walmart Supercenter",
    "address": "9011 E Stockton Blvd, Elk Grove, CA 95624",
    "lat": 38.4178,
    "lon": -121.3834,
    "retailer": "Walmart"
  },
  {
    "store_name": "Walmart Supercenter",
    "address": "8915 Gerber Rd, Sacramento, CA 95828",
    "lat": 38.4923,
    "lon": -121.4234,
    "retailer": "Walmart"
  },
  {
    "store_name": "Walmart Supercenter",
    "address": "1800 S Walton Blvd, Bentonville, AR 72712",
    "lat": 36.3289,
    "lon": -94.2088,
    "retailer": "Walmart"
  },
  {
    "store_name": "Walmart Supercenter",
    "address": "406 S Walton Blvd, Bentonville, AR 72712",
    "lat": 36.3585,
    "lon": -94.2098,
    "retailer": "Walmart"
  },
  {
    "store_name": "Walmart Supercenter",
    "address": "2110 W Walnut St, Rogers, AR 72756",
    "lat": 36.3321,
    "lon": -94.1485,
    "retailer": "Walmart"
  },
  {
    "store_name": "Walmart Supercenter",
    "address": "4208 Pleasant Crossing Blvd, Rogers, AR 72758",
    "lat": 36.3126,
    "lon": -94.0989,
    "retailer": "Walmart"
  },
  {
    "store_name": "Walmart Supercenter",
    "address": "1525 W Hudson Rd, Rogers, AR 72756",
    "lat": 36.3478,
    "lon": -94.1423,
    "retailer": "Walmart"
  },
  {
    "store_name": "Walmart Supercenter",
    "address": "2110 N College Ave, Fayetteville, AR 72703",
    "lat": 36.0889,
    "lon": -94.1574,
    "retailer": "Walmart"
  },
  {
    "store_name": "Walmart Supercenter",
    "address": "3919 N Mall Ave, Fayetteville, AR 72703",
    "lat": 36.1034,
    "lon": -94.1489,
    "retailer": "Walmart"
  },
  {
    "store_name": "Walmart Supercenter",
    "address": "2875 E Market St, Springdale, AR 72764",
    "lat": 36.1845,
    "lon": -94.0923,
    "retailer": "Walmart"
  },
  {
    "store_name": "Walmart Supercenter",
    "address": "1600 SE Walton Blvd, Bentonville, AR 72712",
    "lat": 36.3456,
    "lon": -94.1987,
    "retailer": "Walmart"
  },
  {
    "store_name": "Walmart Supercenter",
    "address": "3251 Market St, Springdale, AR 72762",
    "lat": 36.2012,
    "lon": -94.1134,
    "retailer": "Walmart"
  },
  {
    "store_name": "Walmart Supercenter",
    "address": "4347 Phoenix Ave, Fort Smith, AR 72903",
    "lat": 35.3478,
    "lon": -94.3689,
    "retailer": "Walmart"
  },
  {
    "store_name": "Walmart Supercenter",
    "address": "8301 Rogers Ave, Fort Smith, AR 72903",
    "lat": 35.3512,
    "lon": -94.3423,
    "retailer": "Walmart"
  },
  {
    "store_name": "Walmart Supercenter",
    "address": "3919 Central Mall Dr, Fort Smith, AR 72903",
    "lat": 35.3645,
    "lon": -94.3789,
    "retailer": "Walmart"
  },
  {
    "store_name": "Walmart Supercenter",
    "address": "2110 N Shiloh Dr, Fayetteville, AR 72704",
    "lat": 36.0945,
    "lon": -94.2134,
    "retailer": "Walmart"
  },
  {
    "store_name": "Walmart Supercenter",
    "address": "601 S 8th St, Rogers, AR 72756",
    "lat": 36.3278,
    "lon": -94.1189,
    "retailer": "Walmart"
  },
  {
    "store_name": "Walmart Supercenter",
    "address": "4100 N Shiloh Dr, Fayetteville, AR 72703",
    "lat": 36.1123,
    "lon": -94.2089,
    "retailer": "Walmart"
  },
  {
    "store_name": "Walmart Supercenter",
    "address": "1923 S Bellview Rd, Rogers, AR 72758",
    "lat": 36.3089,
    "lon": -94.0845,
    "retailer": "Walmart"
  },
  {
    "store_name": "Walmart Supercenter",
    "address": "10417 N Rodney Parham Rd, Little Rock, AR 72227",
    "lat": 34.7789,
    "lon": -92.3645,
    "retailer": "Walmart"
  },
  {
    "store_name": "Walmart Supercenter",
    "address": "11525 Cantrell Rd, Little Rock, AR 72212",
    "lat": 34.7645,
    "lon": -92.3912,
    "retailer": "Walmart"
  },
  {
    "store_name": "Walmart Supercenter",
    "address": "17815 Chenal Pkwy, Little Rock, AR 72223",
    "lat": 34.7712,
    "lon": -92.4534,
    "retailer": "Walmart"
  },
  {
    "store_name": "Walmart Supercenter",
    "address": "4428 E McCain Blvd, North Little Rock, AR 72117",
    "lat": 34.7923,
    "lon": -92.2334,
    "retailer": "Walmart"
  },
  {
    "store_name": "Walmart Supercenter",
    "address": "9501 Maumelle Blvd, North Little Rock, AR 72113",
    "lat": 34.8456,
    "lon": -92.3789,
    "retailer": "Walmart"
  },
  {
    "store_name": "Walmart Supercenter",
    "address": "5322 Warden Rd, North Little Rock, AR 72116",
    "lat": 34.8234,
    "lon": -92.2189,
    "retailer": "Walmart"
  },
  {
    "store_name": "Walmart Supercenter",
    "address": "4001 E McCain Blvd, North Little Rock, AR 72117",
    "lat": 34.7889,
    "lon": -92.2478,
    "retailer": "Walmart"
  },
  {
    "store_name": "Walmart Supercenter",
    "address": "10000 N Rodney Parham Rd, Little Rock, AR 72227",
    "lat": 34.7756,
    "lon": -92.3567,
    "retailer": "Walmart"
  },
  {
    "store_name": "Walmart Supercenter",
    "address": "1207 E Commerce St, Springfield, MO 65803",
    "lat": 37.1945,
    "lon": -93.2634,
    "retailer": "Walmart"
  },
  {
    "store_name": "Walmart Supercenter",
    "address": "2825 S Glenstone Ave, Springfield, MO 65804",
    "lat": 37.1678,
    "lon": -93.2756,
    "retailer": "Walmart"
  },
  {
    "store_name": "Walmart Supercenter",
    "address": "3315 S Campbell Ave, Springfield, MO 65807",
    "lat": 37.1589,
    "lon": -93.3012,
    "retailer": "Walmart"
  },
  {
    "store_name": "Walmart Supercenter",
    "address": "1923 N Glenstone Ave, Springfield, MO 65803",
    "lat": 37.2234,
    "lon": -93.2689,
    "retailer": "Walmart"
  },
  {
    "store_name": "Walmart Supercenter",
    "address": "1228 E Republic Rd, Springfield, MO 65807",
    "lat": 37.1345,
    "lon": -93.2478,
    "retailer": "Walmart"
  },
  {
    "store_name": "Walmart Supercenter",
    "address": "3520 W Kearney St, Springfield, MO 65803",
    "lat": 37.2112,
    "lon": -93.3234,
    "retailer": "Walmart"
  },
  {
    "store_name": "Walmart Supercenter",
    "address": "2150 N Glenstone Ave, Springfield, MO 65803",
    "lat": 37.2289,
    "lon": -93.2645,
    "retailer": "Walmart"
  },
  {
    "store_name": "Walmart Supercenter",
    "address": "1923 E Independence St, Springfield, MO 65804",
    "lat": 37.1923,
    "lon": -93.2567,
    "retailer": "Walmart"
  },
  {
    "store_name": "Walmart Supercenter",
    "address": "3615 S Kansas Expy, Springfield, MO 65807",
    "lat": 37.1534,
    "lon": -93.2389,
    "retailer": "Walmart"
  },
  {
    "store_name": "Walmart Supercenter",
    "address": "2021 W Battlefield Rd, Springfield, MO 65807",
    "lat": 37.1489,
    "lon": -93.2912,
    "retailer": "Walmart"
  },
  {
    "store_name": "Walmart Supercenter",
    "address": "1550 E Primrose St, Springfield, MO 65804",
    "lat": 37.1812,
    "lon": -93.2423,
    "retailer": "Walmart"
  },
  {
    "store_name": "Walmart Supercenter",
    "address": "1201 NW 12th St, Oklahoma City, OK 73106",
    "lat": 35.4845,
    "lon": -97.5312,
    "retailer": "Walmart"
  },
  {
    "store_name": "Walmart Supercenter",
    "address": "5600 N May Ave, Oklahoma City, OK 73112",
    "lat": 35.5234,
    "lon": -97.5689,
    "retailer": "Walmart"
  },
  {
    "store_name": "Walmart Supercenter",
    "address": "1200 N Council Rd, Oklahoma City, OK 73127",
    "lat": 35.4789,
    "lon": -97.6334,
    "retailer": "Walmart"
  },
  {
    "store_name": "Walmart Supercenter",
    "address": "100 E I-240 Service Rd, Oklahoma City, OK 73149",
    "lat": 35.3945,
    "lon": -97.5123,
    "retailer": "Walmart"
  },
  {
    "store_name": "Walmart Supercenter",
    "address": "2100 W Memorial Rd, Oklahoma City, OK 73134",
    "lat": 35.5912,
    "lon": -97.5489,
    "retailer": "Walmart"
  },
  {
    "store_name": "Walmart Supercenter",
    "address": "3040 SW 89th St, Oklahoma City, OK 73159",
    "lat": 35.3734,
    "lon": -97.5645,
    "retailer": "Walmart"
  },
  {
    "store_name": "Walmart Supercenter",
    "address": "7800 NW Expressway, Oklahoma City, OK 73132",
    "lat": 35.5489,
    "lon": -97.6234,
    "retailer": "Walmart"
  },
  {
    "store_name": "Walmart Supercenter",
    "address": "1901 Belle Isle Blvd, Oklahoma City, OK 73118",
    "lat": 35.5334,
    "lon": -97.5567,
    "retailer": "Walmart"
  },
  {
    "store_name": "Walmart Supercenter",
    "address": "5200 S Pennsylvania Ave, Oklahoma City, OK 73119",
    "lat": 35.4123,
    "lon": -97.5345,
    "retailer": "Walmart"
  },
  {
    "store_name": "Walmart Supercenter",
    "address": "1414 N Harrison Ave, Shawnee, OK 74801",
    "lat": 35.3445,
    "lon": -96.9234,
    "retailer": "Walmart"
  },
  {
    "store_name": "Walmart Supercenter",
    "address": "1700 N Kickapoo Ave, Shawnee, OK 74801",
    "lat": 35.3512,
    "lon": -96.9456,
    "retailer": "Walmart"
  },
  {
    "store_name": "Walmart Supercenter",
    "address": "4829 N Harrison St, Shawnee, OK 74804",
    "lat": 35.3789,
    "lon": -96.9178,
    "retailer": "Walmart"
  },
  {
    "store_name": "Walmart Supercenter",
    "address": "2500 W Owen K Garriott Rd, Enid, OK 73703",
    "lat": 36.4234,
    "lon": -97.9012,
    "retailer": "Walmart"
  },
  {
    "store_name": "Walmart Supercenter",
    "address": "4901 W Owen K Garriott Rd, Enid, OK 73703",
    "lat": 36.4289,
    "lon": -97.9234,
    "retailer": "Walmart"
  },
  {
    "store_name": "Walmart Supercenter",
    "address": "2500 S Broadway St, Edmond, OK 73013",
    "lat": 35.6234,
    "lon": -97.4789,
    "retailer": "Walmart"
  },
  {
    "store_name": "Walmart Supercenter",
    "address": "3600 S Broadway, Edmond, OK 73013",
    "lat": 35.6123,
    "lon": -97.4823,
    "retailer": "Walmart"
  },
  {
    "store_name": "Walmart Supercenter",
    "address": "16200 N Pennsylvania Ave, Edmond, OK 73013",
    "lat": 35.7456,
    "lon": -97.4912,
    "retailer": "Walmart"
  },
  {
    "store_name": "Walmart Supercenter",
    "address": "1414 Sam Houston Ave, Huntsville, TX 77340",
    "lat": 30.7234,
    "lon": -95.5512,
    "retailer": "Walmart"
  },
  {
    "store_name": "Walmart Supercenter",
    "address": "330 Interstate 45 S, Huntsville, TX 77340",
    "lat": 30.7089,
    "lon": -95.5645,
    "retailer": "Walmart"
  },
  {
    "store_name": "Walmart Supercenter",
    "address": "1201 N Loop 336 W, Conroe, TX 77301",
    "lat": 30.3234,
    "lon": -95.4789,
    "retailer": "Walmart"
  },
  {
    "store_name": "Walmart Supercenter",
    "address": "3550 W Davis St, Conroe, TX 77304",
    "lat": 30.3112,
    "lon": -95.4956,
    "retailer": "Walmart"
  },
  {
    "store_name": "Walmart Supercenter",
    "address": "16925 I-45 S, Conroe, TX 77385",
    "lat": 30.1234,
    "lon": -95.4634,
    "retailer": "Walmart"
  },
  {
    "store_name": "Walmart Supercenter",
    "address": "13750 FM 1097, Willis, TX 77318",
    "lat": 30.4289,
    "lon": -95.4912,
    "retailer": "Walmart"
  },
  {
    "store_name": "Walmart Supercenter",
    "address": "27215 US Highway 290, Cypress, TX 77433",
    "lat": 29.9645,
    "lon": -95.7234,
    "retailer": "Walmart"
  },
  {
    "store_name": "Walmart Supercenter",
    "address": "25710 Northwest Fwy, Cypress, TX 77429",
    "lat": 29.9789,
    "lon": -95.6912,
    "retailer": "Walmart"
  },
  {
    "store_name": "Walmart Supercenter",
    "address": "21030 Kuykendahl Rd, Spring, TX 77379",
    "lat": 30.0634,
    "lon": -95.5123,
    "retailer": "Walmart"
  },
  {
    "store_name": "Walmart Supercenter",
    "address": "24790 Hwy 249, Tomball, TX 77375",
    "lat": 30.0912,
    "lon": -95.6234,
    "retailer": "Walmart"
  },
  {
    "store_name": "Walmart Supercenter",
    "address": "1310 W Grand Pkwy N, Katy, TX 77493",
    "lat": 29.8234,
    "lon": -95.7789,
    "retailer": "Walmart"
  },
  {
    "store_name": "Walmart Supercenter",
    "address": "24840 Katy Fwy, Katy, TX 77494",
    "lat": 29.7912,
    "lon": -95.7634,
    "retailer": "Walmart"
  },
  {
    "store_name": "Walmart Supercenter",
    "address": "5710 FM 1960 E, Humble, TX 77346",
    "lat": 30.0089,
    "lon": -95.2234,
    "retailer": "Walmart"
  },
  {
    "store_name": "Walmart Supercenter",
    "address": "9451 FM 1960 Bypass Rd W, Humble, TX 77338",
    "lat": 29.9934,
    "lon": -95.3512,
    "retailer": "Walmart"
  },
  {
    "store_name": "Walmart Supercenter",
    "address": "19210 David Memorial Dr, Humble, TX 77338",
    "lat": 30.0234,
    "lon": -95.2912,
    "retailer": "Walmart"
  },
  {
    "store_name": "Walmart Supercenter",
    "address": "11210 North Fwy, Houston, TX 77037",
    "lat": 29.9123,
    "lon": -95.4134,
    "retailer": "Walmart"
  },
  {
    "store_name": "Walmart Supercenter",
    "address": "14555 Woodforest Blvd, Houston, TX 77015",
    "lat": 29.8645,
    "lon": -95.1789,
    "retailer": "Walmart"
  },
  {
    "store_name": "Walmart Supercenter",
    "address": "10411 North Fwy, Houston, TX 77037",
    "lat": 29.9034,
    "lon": -95.4089,
    "retailer": "Walmart"
  },
  {
    "store_name": "Walmart Supercenter",
    "address": "5655 E Sam Houston Pkwy N, Houston, TX 77015",
    "lat": 29.8234,
    "lon": -95.1634,
    "retailer": "Walmart"
  },
  {
    "store_name": "Walmart Supercenter",
    "address": "12955 Veterans Memorial Dr, Houston, TX 77014",
    "lat": 30.0312,
    "lon": -95.5234,
    "retailer": "Walmart"
  },
  {
    "store_name": "Walmart Supercenter",
    "address": "350 Meyerland Plaza Mall, Houston, TX 77096",
    "lat": 29.7045,
    "lon": -95.4923,
    "retailer": "Walmart"
  },
  {
    "store_name": "Walmart Supercenter",
    "address": "10001 Westheimer Rd, Houston, TX 77042",
    "lat": 29.7389,
    "lon": -95.5712,
    "retailer": "Walmart"
  },
  {
    "store_name": "Walmart Supercenter",
    "address": "4412 N Freeway, Houston, TX 77022",
    "lat": 29.8123,
    "lon": -95.4012,
    "retailer": "Walmart"
  },
  {
    "store_name": "Walmart Supercenter",
    "address": "5625 Antoine Dr, Houston, TX 77091",
    "lat": 29.8534,
    "lon": -95.4823,
    "retailer": "Walmart"
  },
  {
    "store_name": "Walmart Supercenter",
    "address": "801 Airport Blvd, Austin, TX 78702",
    "lat": 30.2734,
    "lon": -97.7123,
    "retailer": "Walmart"
  },
  {
    "store_name": "Walmart Supercenter",
    "address": "8041 S Congress Ave, Austin, TX 78745",
    "lat": 30.2089,
    "lon": -97.7989,
    "retailer": "Walmart"
  },
  {
    "store_name": "Walmart Supercenter",
    "address": "10515 N Lamar Blvd, Austin, TX 78753",
    "lat": 30.3712,
    "lon": -97.6934,
    "retailer": "Walmart"
  },
  {
    "store_name": "Walmart Supercenter",
    "address": "12900 N I-35, Austin, TX 78753",
    "lat": 30.3889,
    "lon": -97.6812,
    "retailer": "Walmart"
  },
  {
    "store_name": "Walmart Supercenter",
    "address": "1471 E Whitestone Blvd, Cedar Park, TX 78613",
    "lat": 30.5234,
    "lon": -97.8123,
    "retailer": "Walmart"
  },
  {
    "store_name": "Walmart Supercenter",
    "address": "2701 W Parmer Ln, Austin, TX 78727",
    "lat": 30.4445,
    "lon": -97.7534,
    "retailer": "Walmart"
  },
  {
    "store_name": "Walmart Supercenter",
    "address": "11521 N FM 620, Austin, TX 78726",
    "lat": 30.4612,
    "lon": -97.8889,
    "retailer": "Walmart"
  },
  {
    "store_name": "Walmart Supercenter",
    "address": "1000 E Slaughter Ln, Austin, TX 78744",
    "lat": 30.1734,
    "lon": -97.7712,
    "retailer": "Walmart"
  },
  {
    "store_name": "Walmart Supercenter",
    "address": "14900 Avery Ranch Blvd, Austin, TX 78717",
    "lat": 30.5089,
    "lon": -97.7989,
    "retailer": "Walmart"
  },
  {
    "store_name": "Walmart Supercenter",
    "address": "6301 W Waco Dr, Waco, TX 76710",
    "lat": 31.5634,
    "lon": -97.2012,
    "retailer": "Walmart"
  },
  {
    "store_name": "Walmart Supercenter",
    "address": "4320 Franklin Ave, Waco, TX 76710",
    "lat": 31.5423,
    "lon": -97.1834,
    "retailer": "Walmart"
  },
  {
    "store_name": "Walmart Supercenter",
    "address": "1521 Interstate 35 S, Waco, TX 76706",
    "lat": 31.5289,
    "lon": -97.1567,
    "retailer": "Walmart"
  },
  {
    "store_name": "Walmart Supercenter",
    "address": "1200 N Valley Mills Dr, Waco, TX 76710",
    "lat": 31.5712,
    "lon": -97.1923,
    "retailer": "Walmart"
  },
  {
    "store_name": "Walmart Supercenter",
    "address": "2701 S Jack Kultgen Expy, Waco, TX 76706",
    "lat": 31.5134,
    "lon": -97.1423,
    "retailer": "Walmart"
  },
  {
    "store_name": "Walmart Supercenter",
    "address": "4105 Interstate 30, Greenville, TX 75402",
    "lat": 33.1234,
    "lon": -96.0823,
    "retailer": "Walmart"
  },
  {
    "store_name": "Walmart Supercenter",
    "address": "5501 Wesley St, Greenville, TX 75402",
    "lat": 33.1389,
    "lon": -96.0712,
    "retailer": "Walmart"
  },
  {
    "store_name": "Walmart Supercenter",
    "address": "2200 S Main St, Paris, TX 75460",
    "lat": 33.6445,
    "lon": -95.5623,
    "retailer": "Walmart"
  },
  {
    "store_name": "Walmart Supercenter",
    "address": "3855 Lamar Ave, Paris, TX 75460",
    "lat": 33.6723,
    "lon": -95.5489,
    "retailer": "Walmart"
  },
  {
    "store_name": "Walmart Supercenter",
    "address": "1650 W Loop 281, Longview, TX 75604",
    "lat": 32.5134,
    "lon": -94.7823,
    "retailer": "Walmart"
  },
  {
    "store_name": "Walmart Supercenter",
    "address": "3809 McCann Rd, Longview, TX 75605",
    "lat": 32.4912,
    "lon": -94.7634,
    "retailer": "Walmart"
  },
  {
    "store_name": "Walmart Supercenter",
    "address": "215 Sabine Dr, Marshall, TX 75670",
    "lat": 32.5445,
    "lon": -94.3512,
    "retailer": "Walmart"
  },
  {
    "store_name": "Walmart Supercenter",
    "address": "1400 E End Blvd S, Marshall, TX 75672",
    "lat": 32.5312,
    "lon": -94.3389,
    "retailer": "Walmart"
  },
  {
    "store_name": "Walmart Supercenter",
    "address": "3404 N Saint Mary St, San Antonio, TX 78212",
    "lat": 29.4623,
    "lon": -98.4912,
    "retailer": "Walmart"
  },
  {
    "store_name": "Walmart Supercenter",
    "address": "1604 SW Loop 410, San Antonio, TX 78227",
    "lat": 29.3734,
    "lon": -98.5634,
    "retailer": "Walmart"
  },
  {
    "store_name": "Walmart Supercenter",
    "address": "8923 Culebra Rd, San Antonio, TX 78251",
    "lat": 29.5134,
    "lon": -98.6823,
    "retailer": "Walmart"
  },
  {
    "store_name": "Walmart Supercenter",
    "address": "5502 Walzem Rd, San Antonio, TX 78218",
    "lat": 29.5012,
    "lon": -98.4234,
    "retailer": "Walmart"
  },
  {
    "store_name": "Walmart Supercenter",
    "address": "14650 NE Loop 410, San Antonio, TX 78233",
    "lat": 29.5423,
    "lon": -98.3789,
    "retailer": "Walmart"
  },
  {
    "store_name": "Walmart Supercenter",
    "address": "12118 Perrin Beitel Rd, San Antonio, TX 78217",
    "lat": 29.5289,
    "lon": -98.4023,
    "retailer": "Walmart"
  },
  {
    "store_name": "Walmart Supercenter",
    "address": "6702 Tower Dr, San Antonio, TX 78238",
    "lat": 29.4812,
    "lon": -98.5934,
    "retailer": "Walmart"
  },
  {
    "store_name": "Walmart Supercenter",
    "address": "9503 Westheimer Rd, Houston, TX 77063",
    "lat": 29.7356,
    "lon": -95.5623,
    "retailer": "Walmart"
  },
  {
    "store_name": "Walmart Supercenter",
    "address": "11210 Fuqua St, Houston, TX 77089",
    "lat": 29.6234,
    "lon": -95.2912,
    "retailer": "Walmart"
  },
  {
    "store_name": "Walmart Supercenter",
    "address": "6205 Northwest Loop 410, San Antonio, TX 78238",
    "lat": 29.5023,
    "lon": -98.5712,
    "retailer": "Walmart"
  },
  {
    "store_name": "Walmart Supercenter",
    "address": "9322 Perrin Beitel Rd, San Antonio, TX 78217",
    "lat": 29.5134,
    "lon": -98.4134,
    "retailer": "Walmart"
  },
  {
    "store_name": "Walmart Supercenter",
    "address": "7114 Marbach Rd, San Antonio, TX 78227",
    "lat": 29.4312,
    "lon": -98.6023,
    "retailer": "Walmart"
  },
  {
    "store_name": "Walmart Supercenter",
    "address": "415 W University Dr, Edinburg, TX 78539",
    "lat": 26.3023,
    "lon": -98.1789,
    "retailer": "Walmart"
  },
  {
    "store_name": "Walmart Supercenter",
    "address": "1320 E Ridge Rd, McAllen, TX 78503",
    "lat": 26.2434,
    "lon": -98.2156,
    "retailer": "Walmart"
  },
  {
    "store_name": "Walmart Supercenter",
    "address": "4001 N 10th St, McAllen, TX 78504",
    "lat": 26.2623,
    "lon": -98.2423,
    "retailer": "Walmart"
  },
  {
    "store_name": "Walmart Supercenter",
    "address": "801 E Expressway 83, Mission, TX 78572",
    "lat": 26.2156,
    "lon": -98.3012,
    "retailer": "Walmart"
  },
  {
    "store_name": "Walmart Supercenter",
    "address": "2401 E Nolana Ave, McAllen, TX 78504",
    "lat": 26.2312,
    "lon": -98.2089,
    "retailer": "Walmart"
  },
  {
    "store_name": "Walmart Supercenter",
    "address": "3000 Pablo Kisel Blvd, Brownsville, TX 78526",
    "lat": 25.9534,
    "lon": -97.4823,
    "retailer": "Walmart"
  },
  {
    "store_name": "Walmart Supercenter",
    "address": "1650 E Los Ebanos Blvd, Brownsville, TX 78520",
    "lat": 25.9623,
    "lon": -97.4634,
    "retailer": "Walmart"
  },
  {
    "store_name": "Walmart Supercenter",
    "address": "1902 W Nolana Loop, Pharr, TX 78577",
    "lat": 26.1823,
    "lon": -98.2134,
    "retailer": "Walmart"
  },
  {
    "store_name": "Walmart Supercenter",
    "address": "4105 N Conway Ave, Mission, TX 78573",
    "lat": 26.2456,
    "lon": -98.3234,
    "retailer": "Walmart"
  },
  {
    "store_name": "Walmart Supercenter",
    "address": "709 N Ed Carey Dr, Harlingen, TX 78550",
    "lat": 26.1912,
    "lon": -97.6923,
    "retailer": "Walmart"
  },
  {
    "store_name": "Walmart Supercenter",
    "address": "2508 Haines Ave, Rapid City, SD 57701",
    "lat": 44.0634,
    "lon": -103.2423,
    "retailer": "Walmart"
  },
  {
    "store_name": "Walmart Supercenter",
    "address": "1200 Eglin St, Rapid City, SD 57701",
    "lat": 44.0789,
    "lon": -103.2289,
    "retailer": "Walmart"
  },
  {
    "store_name": "Walmart Supercenter",
    "address": "3101 32nd Ave S, Grand Forks, ND 58201",
    "lat": 47.8923,
    "lon": -97.0634,
    "retailer": "Walmart"
  },
  {
    "store_name": "Walmart Supercenter",
    "address": "2551 Kirsten Ln S, Fargo, ND 58104",
    "lat": 46.8234,
    "lon": -96.8923,
    "retailer": "Walmart"
  },
  {
    "store_name": "Walmart Supercenter",
    "address": "1350 42nd St SW, Fargo, ND 58103",
    "lat": 46.8412,
    "lon": -96.8745,
    "retailer": "Walmart"
  },
  {
    "store_name": "Walmart Supercenter",
    "address": "2456 10th St SW, Minot, ND 58701",
    "lat": 48.2134,
    "lon": -101.3189,
    "retailer": "Walmart"
  },
  {
    "store_name": "Walmart Supercenter",
    "address": "1400 SE 3rd St, Minot, ND 58701",
    "lat": 48.2023,
    "lon": -101.2812,
    "retailer": "Walmart"
  },
  {
    "store_name": "Walmart Supercenter",
    "address": "1400 Skyline Blvd, Idaho Falls, ID 83402",
    "lat": 43.4712,
    "lon": -112.0534,
    "retailer": "Walmart"
  },
  {
    "store_name": "Walmart Supercenter",
    "address": "3290 E 17th St, Idaho Falls, ID 83406",
    "lat": 43.4834,
    "lon": -112.0123,
    "retailer": "Walmart"
  },
  {
    "store_name": "Walmart Supercenter",
    "address": "7319 W State St, Boise, ID 83714",
    "lat": 43.6123,
    "lon": -116.2934,
    "retailer": "Walmart"
  },
  {
    "store_name": "Walmart Supercenter",
    "address": "8300 W Overland Rd, Boise, ID 83709",
    "lat": 43.5734,
    "lon": -116.3089,
    "retailer": "Walmart"
  },
  {
    "store_name": "Walmart Supercenter",
    "address": "222 W 72nd Ave, Anchorage, AK 99518",
    "lat": 61.1534,
    "lon": -149.8723,
    "retailer": "Walmart"
  },
  {
    "store_name": "Walmart Supercenter",
    "address": "8900 Old Seward Hwy, Anchorage, AK 99515",
    "lat": 61.1423,
    "lon": -149.8645,
    "retailer": "Walmart"
  },
  {
    "store_name": "Walmart Supercenter",
    "address": "3101 A St, Anchorage, AK 99503",
    "lat": 61.1912,
    "lon": -149.8834,
    "retailer": "Walmart"
  },
  {
    "store_name": "Walmart Supercenter",
    "address": "1350 S Seward Meridian Pkwy, Wasilla, AK 99654",
    "lat": 61.5734,
    "lon": -149.4489,
    "retailer": "Walmart"
  },
  {
    "store_name": "Walmart Supercenter",
    "address": "751 Old Richardson Hwy, Fairbanks, AK 99701",
    "lat": 64.8234,
    "lon": -147.7423,
    "retailer": "Walmart"
  },
  {
    "store_name": "Walmart Supercenter",
    "address": "537 Johansen Expy, Fairbanks, AK 99701",
    "lat": 64.8389,
    "lon": -147.7289,
    "retailer": "Walmart"
  },
  {
    "store_name": "Walmart Supercenter",
    "address": "3600 Minnesota Dr, Anchorage, AK 99503",
    "lat": 61.1845,
    "lon": -149.8912,
    "retailer": "Walmart"
  },
  {
    "store_name": "Walmart Supercenter",
    "address": "2220 N Perris Blvd, Perris, CA 92571",
    "lat": 33.8023,
    "lon": -117.2289,
    "retailer": "Walmart"
  },
  {
    "store_name": "Walmart Supercenter",
    "address": "27520 Ynez Rd, Temecula, CA 92591",
    "lat": 33.5134,
    "lon": -117.1423,
    "retailer": "Walmart"
  },
  {
    "store_name": "Walmart Supercenter",
    "address": "42150 Jackson St, Indio, CA 92203",
    "lat": 33.7289,
    "lon": -116.2134,
    "retailer": "Walmart"
  },
  {
    "store_name": "Walmart Supercenter",
    "address": "68100 Ramon Rd, Cathedral City, CA 92234",
    "lat": 33.8234,
    "lon": -116.4623,
    "retailer": "Walmart"
  },
  {
    "store_name": "Walmart Supercenter",
    "address": "72-201 CA-111, Palm Desert, CA 92260",
    "lat": 33.7434,
    "lon": -116.3789,
    "retailer": "Walmart"
  },
  {
    "store_name": "Walmart Supercenter",
    "address": "1400 Town and Country Dr, Norco, CA 92860",
    "lat": 33.9312,
    "lon": -117.5489,
    "retailer": "Walmart"
  },
  {
    "store_name": "Walmart Supercenter",
    "address": "2755 Cabot Dr, Corona, CA 92883",
    "lat": 33.8623,
    "lon": -117.5734,
    "retailer": "Walmart"
  },
  {
    "store_name": "Walmart Supercenter",
    "address": "1827 S Main St, Tulsa, OK 74119",
    "lat": 36.1423,
    "lon": -95.9912,
    "retailer": "Walmart"
  },
  {
    "store_name": "Walmart Supercenter",
    "address": "10824 E 71st St, Tulsa, OK 74133",
    "lat": 36.0634,
    "lon": -95.8423,
    "retailer": "Walmart"
  },
  {
    "store_name": "Walmart Supercenter",
    "address": "1133 N Muskogee Ave, Tahlequah, OK 74464",
    "lat": 35.9234,
    "lon": -94.9689,
    "retailer": "Walmart"
  },
  {
    "store_name": "Walmart Supercenter",
    "address": "2020 S Broadway St, Sulphur, OK 73086",
    "lat": 34.4923,
    "lon": -96.9634,
    "retailer": "Walmart"
  },
  {
    "store_name": "Walmart Supercenter",
    "address": "1500 N Harrison Ave, Shawnee, OK 74801",
    "lat": 35.3512,
    "lon": -96.9278,
    "retailer": "Walmart"
  },
  {
    "store_name": "Walmart Supercenter",
    "address": "3725 W Main St, Durant, OK 74701",
    "lat": 33.9934,
    "lon": -96.4123,
    "retailer": "Walmart"
  },
  {
    "store_name": "Walmart Supercenter",
    "address": "2800 N Broadway St, Poteau, OK 74953",
    "lat": 35.0734,
    "lon": -94.6234,
    "retailer": "Walmart"
  },
  {
    "store_name": "Walmart Supercenter",
    "address": "1500 SE Washington Blvd, Bartlesville, OK 74006",
    "lat": 36.7312,
    "lon": -95.9489,
    "retailer": "Walmart"
  },
  {
    "store_name": "Walmart Supercenter",
    "address": "2600 N Perkins Rd, Stillwater, OK 74075",
    "lat": 36.1423,
    "lon": -97.0534,
    "retailer": "Walmart"
  },
  {
    "store_name": "Walmart Supercenter",
    "address": "4210 W Owen K Garriott Rd, Enid, OK 73703",
    "lat": 36.4289,
    "lon": -97.9156,
    "retailer": "Walmart"
  },
  {
    "store_name": "Walmart Supercenter",
    "address": "1500 SE Frank Phillips Blvd, Bartlesville, OK 74003",
    "lat": 36.7234,
    "lon": -95.9612,
    "retailer": "Walmart"
  },
  {
    "store_name": "Walmart Supercenter",
    "address": "3108 N Broadway St, Grove, OK 74344",
    "lat": 36.6134,
    "lon": -94.7689,
    "retailer": "Walmart"
  },
  {
    "store_name": "Walmart Supercenter",
    "address": "2708 N Van Buren St, Enid, OK 73703",
    "lat": 36.4156,
    "lon": -97.8734,
    "retailer": "Walmart"
  },
  {
    "store_name": "Walmart Supercenter",
    "address": "1701 SW Lee Blvd, Lawton, OK 73505",
    "lat": 34.5934,
    "lon": -98.4234,
    "retailer": "Walmart"
  },
  {
    "store_name": "Walmart Supercenter",
    "address": "2801 NW Cache Rd, Lawton, OK 73505",
    "lat": 34.6212,
    "lon": -98.4389,
    "retailer": "Walmart"
  },
  {
    "store_name": "Walmart Supercenter",
    "address": "402 SW C Ave, Lawton, OK 73501",
    "lat": 34.5989,
    "lon": -98.4156,
    "retailer": "Walmart"
  },
  {
    "store_name": "Walmart Supercenter",
    "address": "4420 SW Lee Blvd, Lawton, OK 73505",
    "lat": 34.5823,
    "lon": -98.4512,
    "retailer": "Walmart"
  },
  {
    "store_name": "Walmart Supercenter",
    "address": "1911 S Air Depot Blvd, Midwest City, OK 73110",
    "lat": 35.4434,
    "lon": -97.3689,
    "retailer": "Walmart"
  },
  {
    "store_name": "Walmart Supercenter",
    "address": "7800 SE 29th St, Midwest City, OK 73110",
    "lat": 35.4289,
    "lon": -97.3423,
    "retailer": "Walmart"
  },
  {
    "store_name": "Walmart Supercenter",
    "address": "201 N Kickapoo Ave, Shawnee, OK 74801",
    "lat": 35.3389,
    "lon": -96.9234,
    "retailer": "Walmart"
  },
  {
    "store_name": "Walmart Supercenter",
    "address": "4500 N Kickapoo St, Shawnee, OK 74804",
    "lat": 35.3789,
    "lon": -96.9412,
    "retailer": "Walmart"
  },
  {
    "store_name": "Walmart Supercenter",
    "address": "3108 E Frank Phillips Blvd, Bartlesville, OK 74006",
    "lat": 36.7423,
    "lon": -95.9234,
    "retailer": "Walmart"
  },
  {
    "store_name": "Walmart Supercenter",
    "address": "2500 W Okmulgee Ave, Muskogee, OK 74401",
    "lat": 35.7534,
    "lon": -95.3912,
    "retailer": "Walmart"
  },
  {
    "store_name": "Walmart Supercenter",
    "address": "1000 W Shawnee St, Muskogee, OK 74401",
    "lat": 35.7423,
    "lon": -95.3734,
    "retailer": "Walmart"
  },
  {
    "store_name": "Walmart Supercenter",
    "address": "2100 SE Washington Blvd, Bartlesville, OK 74006",
    "lat": 36.7289,
    "lon": -95.9545,
    "retailer": "Walmart"
  },
  {
    "store_name": "Walmart Supercenter",
    "address": "2845 N Main St, Altus, OK 73521",
    "lat": 34.6623,
    "lon": -99.3234,
    "retailer": "Walmart"
  },
  {
    "store_name": "Walmart Supercenter",
    "address": "1500 E Jackson St, Hugo, OK 74743",
    "lat": 34.0134,
    "lon": -95.4923,
    "retailer": "Walmart"
  },
  {
    "store_name": "Walmart Supercenter",
    "address": "2020 S Park Dr, Broken Arrow, OK 74012",
    "lat": 36.0334,
    "lon": -95.7912,
    "retailer": "Walmart"
  },
  {
    "store_name": "Walmart Supercenter",
    "address": "900 32nd Ave NW, Norman, OK 73072",
    "lat": 35.2423,
    "lon": -97.5134,
    "retailer": "Walmart"
  },
  {
    "store_name": "Walmart Supercenter",
    "address": "601 12th Ave NW, Norman, OK 73069",
    "lat": 35.2289,
    "lon": -97.4689,
    "retailer": "Walmart"
  },
  {
    "store_name": "Walmart Supercenter",
    "address": "3400 W Main St, Norman, OK 73072",
    "lat": 35.2156,
    "lon": -97.5034,
    "retailer": "Walmart"
  },
  {
    "store_name": "Walmart Supercenter",
    "address": "333 N Interstate Dr, Norman, OK 73069",
    "lat": 35.2234,
    "lon": -97.4423,
    "retailer": "Walmart"
  },
  {
    "store_name": "Walmart Supercenter",
    "address": "4000 W Tecumseh Rd, Norman, OK 73072",
    "lat": 35.2423,
    "lon": -97.5234,
    "retailer": "Walmart"
  },
  {
    "store_name": "Walmart Supercenter",
    "address": "1500 24th Ave NW, Norman, OK 73069",
    "lat": 35.2345,
    "lon": -97.4912,
    "retailer": "Walmart"
  },
  {
    "store_name": "Walmart Supercenter",
    "address": "2100 W Main St, Duncan, OK 73533",
    "lat": 34.5123,
    "lon": -97.9789,
    "retailer": "Walmart"
  },
  {
    "store_name": "Walmart Supercenter",
    "address": "3428 W Main St, Duncan, OK 73533",
    "lat": 34.5089,
    "lon": -97.9912,
    "retailer": "Walmart"
  },
  {
    "store_name": "Walmart Supercenter",
    "address": "2901 S Broadway St, Edmond, OK 73013",
    "lat": 35.6189,
    "lon": -97.4756,
    "retailer": "Walmart"
  },
  {
    "store_name": "Walmart Supercenter",
    "address": "3201 S Broadway, Edmond, OK 73013",
    "lat": 35.6089,
    "lon": -97.4789,
    "retailer": "Walmart"
  },
  {
    "store_name": "Walmart Supercenter",
    "address": "333 S Bryant Ave, Edmond, OK 73034",
    "lat": 35.6234,
    "lon": -97.4423,
    "retailer": "Walmart"
  },
  {
    "store_name": "Walmart Supercenter",
    "address": "2100 W Danforth Rd, Edmond, OK 73003",
    "lat": 35.6723,
    "lon": -97.5034,
    "retailer": "Walmart"
  },
  {
    "store_name": "Walmart Supercenter",
    "address": "1500 SE 4th St, Moore, OK 73160",
    "lat": 35.3289,
    "lon": -97.4723,
    "retailer": "Walmart"
  },
  {
    "store_name": "Walmart Supercenter",
    "address": "700 SW 19th St, Moore, OK 73160",
    "lat": 35.3156,
    "lon": -97.4912,
    "retailer": "Walmart"
  },
  {
    "store_name": "Walmart Supercenter",
    "address": "1300 N Moore Ave, Moore, OK 73160",
    "lat": 35.3423,
    "lon": -97.4834,
    "retailer": "Walmart"
  },
  {
    "store_name": "Walmart Supercenter",
    "address": "2801 S Broadway, Moore, OK 73160",
    "lat": 35.3089,
    "lon": -97.4756,
    "retailer": "Walmart"
  },
  {
    "store_name": "Walmart Supercenter",
    "address": "4000 S Telephone Rd, Moore, OK 73160",
    "lat": 35.2989,
    "lon": -97.4623,
    "retailer": "Walmart"
  },
  {
    "store_name": "Walmart Supercenter",
    "address": "2100 N Kelly Ave, Edmond, OK 73003",
    "lat": 35.6812,
    "lon": -97.4456,
    "retailer": "Walmart"
  },
  {
    "store_name": "Walmart Supercenter",
    "address": "2929 S Douglas Blvd, Midwest City, OK 73130",
    "lat": 35.4189,
    "lon": -97.3534,
    "retailer": "Walmart"
  },
  {
    "store_name": "Walmart Supercenter",
    "address": "6100 SE 15th St, Midwest City, OK 73110",
    "lat": 35.4323,
    "lon": -97.3289,
    "retailer": "Walmart"
  },
  {
    "store_name": "Walmart Supercenter",
    "address": "901 N Beard Ave, Shawnee, OK 74801",
    "lat": 35.3512,
    "lon": -96.9145,
    "retailer": "Walmart"
  },
  {
    "store_name": "Walmart Supercenter",
    "address": "4540 N Harrison St, Shawnee, OK 74804",
    "lat": 35.3823,
    "lon": -96.9234,
    "retailer": "Walmart"
  },
  {
    "store_name": "Walmart Supercenter",
    "address": "1500 E Highland Ave, Ponca City, OK 74601",
    "lat": 36.7234,
    "lon": -97.0612,
    "retailer": "Walmart"
  },
  {
    "store_name": "Walmart Supercenter",
    "address": "3201 N 14th St, Ponca City, OK 74601",
    "lat": 36.7423,
    "lon": -97.0734,
    "retailer": "Walmart"
  },
  {
    "store_name": "Walmart Supercenter",
    "address": "2200 N Perkins Rd, Stillwater, OK 74075",
    "lat": 36.1389,
    "lon": -97.0512,
    "retailer": "Walmart"
  },
  {
    "store_name": "Walmart Supercenter",
    "address": "5101 W 6th Ave, Stillwater, OK 74074",
    "lat": 36.1234,
    "lon": -97.0945,
    "retailer": "Walmart"
  },
  {
    "store_name": "Walmart Supercenter",
    "address": "1700 N Perkins Rd, Stillwater, OK 74075",
    "lat": 36.1312,
    "lon": -97.0623,
    "retailer": "Walmart"
  },
  {
    "store_name": "Walmart Supercenter",
    "address": "3800 W 6th Ave, Stillwater, OK 74074",
    "lat": 36.1189,
    "lon": -97.0834,
    "retailer": "Walmart"
  },
  {
    "store_name": "Walmart Supercenter",
    "address": "100 N Carr Dr, Stillwater, OK 74075",
    "lat": 36.1156,
    "lon": -97.0456,
    "retailer": "Walmart"
  },
  {
    "store_name": "Walmart Supercenter",
    "address": "1623 W Will Rogers Blvd, Claremore, OK 74017",
    "lat": 36.3123,
    "lon": -95.6289,
    "retailer": "Walmart"
  },
  {
    "store_name": "Walmart Supercenter",
    "address": "1800 S Lynn Riggs Blvd, Claremore, OK 74017",
    "lat": 36.2989,
    "lon": -95.6123,
    "retailer": "Walmart"
  },
  {
    "store_name": "Walmart Supercenter",
    "address": "2400 N Highway 66, Claremore, OK 74017",
    "lat": 36.3312,
    "lon": -95.5912,
    "retailer": "Walmart"
  },
  {
    "store_name": "Walmart Supercenter",
    "address": "1500 N York St, Muskogee, OK 74403",
    "lat": 35.7623,
    "lon": -95.3534,
    "retailer": "Walmart"
  },
  {
    "store_name": "Walmart Supercenter",
    "address": "920 W Shawnee St, Muskogee, OK 74401",
    "lat": 35.7445,
    "lon": -95.3712,
    "retailer": "Walmart"
  },
  {
    "store_name": "Walmart Supercenter",
    "address": "1101 W Shawnee Bypass, Muskogee, OK 74401",
    "lat": 35.7489,
    "lon": -95.3823,
    "retailer": "Walmart"
  },
  {
    "store_name": "Walmart Supercenter",
    "address": "2900 Chandler Rd, Muskogee, OK 74403",
    "lat": 35.7734,
    "lon": -95.3412,
    "retailer": "Walmart"
  },
  {
    "store_name": "Walmart Supercenter",
    "address": "800 S 32nd St, Muskogee, OK 74401",
    "lat": 35.7312,
    "lon": -95.3289,
    "retailer": "Walmart"
  },
  {
    "store_name": "Walmart Supercenter",
    "address": "4600 S Garnett Rd, Tulsa, OK 74146",
    "lat": 36.0834,
    "lon": -95.8923,
    "retailer": "Walmart"
  },
  {
    "store_name": "Walmart Supercenter",
    "address": "10808 E 71st St S, Tulsa, OK 74133",
    "lat": 36.0623,
    "lon": -95.8412,
    "retailer": "Walmart"
  },
  {
    "store_name": "Walmart Supercenter",
    "address": "10110 E 71st St, Tulsa, OK 74133",
    "lat": 36.0645,
    "lon": -95.8534,
    "retailer": "Walmart"
  },
  {
    "store_name": "Walmart Supercenter",
    "address": "2020 S Garnett Rd, Tulsa, OK 74129",
    "lat": 36.1234,
    "lon": -95.9112,
    "retailer": "Walmart"
  },
  {
    "store_name": "Walmart Supercenter",
    "address": "3900 S Garnett Rd, Tulsa, OK 74146",
    "lat": 36.0945,
    "lon": -95.9023,
    "retailer": "Walmart"
  },
  {
    "store_name": "Walmart Supercenter",
    "address": "1150 S Aspen Ave, Broken Arrow, OK 74012",
    "lat": 36.0423,
    "lon": -95.7823,
    "retailer": "Walmart"
  },
  {
    "store_name": "Walmart Supercenter",
    "address": "2904 S Elm Pl, Broken Arrow, OK 74012",
    "lat": 36.0289,
    "lon": -95.7934,
    "retailer": "Walmart"
  },
  {
    "store_name": "Walmart Supercenter",
    "address": "1601 N Aspen Ave, Broken Arrow, OK 74012",
    "lat": 36.0734,
    "lon": -95.7712,
    "retailer": "Walmart"
  },
  {
    "store_name": "Walmart Supercenter",
    "address": "2720 N Aspen Ave, Broken Arrow, OK 74012",
    "lat": 36.0856,
    "lon": -95.7645,
    "retailer": "Walmart"
  },
  {
    "store_name": "Walmart Supercenter",
    "address": "500 N Aspen Ave, Broken Arrow, OK 74012",
    "lat": 36.0612,
    "lon": -95.7823,
    "retailer": "Walmart"
  },
  {
    "store_name": "Walmart Supercenter",
    "address": "11825 Hooper Rd, Baton Rouge, LA 70818",
    "lat": 30.54772,
    "lon": -91.0569,
    "retailer": "Walmart"
  },
  {
    "store_name": "Walmart Supercenter",
    "address": "8800 Lakeview Pkwy, Rowlett, TX 75088",
    "lat": 32.91684,
    "lon": -96.5157,
    "retailer": "Walmart"
  },
  {
    "store_name": "Walmart Supercenter",
    "address": "367 W Main St, Farmington, AR 72730",
    "lat": 36.03876,
    "lon": -94.2656,
    "retailer": "Walmart"
  },
  {
    "store_name": "Walmart Supercenter",
    "address": "11233 B NC 55 Hwy, Grantsboro, NC 28529",
    "lat": 35.14469,
    "lon": -76.8358,
    "retailer": "Walmart"
  },
  {
    "store_name": "Walmart Supercenter",
    "address": "25820 La Highway 16, Denham Springs, LA 70726",
    "lat": 30.44392,
    "lon": -90.9453,
    "retailer": "Walmart"
  },
  {
    "store_name": "Walmart Supercenter",
    "address": "1102 E Franklin St, Sylvester, GA 31791",
    "lat": 31.52579,
    "lon": -83.8117,
    "retailer": "Walmart"
  },
  {
    "store_name": "Walmart Supercenter",
    "address": "396 Highway 2, Cochran, GA 31014",
    "lat": 32.4003,
    "lon": -83.3363,
    "retailer": "Walmart"
  },
  {
    "store_name": "Walmart Supercenter",
    "address": "911 N Main St, Atmore, AL 36502",
    "lat": 31.10379,
    "lon": -87.4952,
    "retailer": "Walmart"
  },
  {
    "store_name": "Walmart Supercenter",
    "address": "7800 Summer Creek Dr, Fort Worth, TX 76123",
    "lat": 32.62982,
    "lon": -97.4076,
    "retailer": "Walmart"
  },
  {
    "store_name": "Walmart Supercenter",
    "address": "500 West Mt Vernon Blvd, Mount Vernon, MO 65712",
    "lat": 37.06199,
    "lon": -93.8261,
    "retailer": "Walmart"
  },
  {
    "store_name": "Walmart Supercenter",
    "address": "1 Cotton Valley Dr, Huntsville, AL 35810",
    "lat": 34.7652,
    "lon": -86.5923,
    "retailer": "Walmart"
  },
  {
    "store_name": "Walmart Supercenter",
    "address": "8777 Platt Rd, Saline, MI 48176",
    "lat": 42.16272,
    "lon": -83.6923,
    "retailer": "Walmart"
  },
  {
    "store_name": "Walmart Supercenter",
    "address": "1001 Cherry Blossom Way, Georgetown, KY 40324",
    "lat": 38.26117,
    "lon": -84.5312,
    "retailer": "Walmart"
  },
  {
    "store_name": "Walmart Supercenter",
    "address": "6565 Heather Glen Dr, Plano, TX 75024",
    "lat": 33.08304,
    "lon": -96.842,
    "retailer": "Walmart"
  },
  {
    "store_name": "Walmart Supercenter",
    "address": "3651 Classen Blvd, Norman, OK 73071",
    "lat": 35.17309,
    "lon": -97.4087,
    "retailer": "Walmart"
  },
  {
    "store_name": "Walmart Supercenter",
    "address": "5601 Highway 157, Cullman, AL 35058",
    "lat": 34.20432,
    "lon": -86.8696,
    "retailer": "Walmart"
  },
  {
    "store_name": "Walmart Supercenter",
    "address": "6501 Veterans Pkwy, Crestwood, KY 40014",
    "lat": 38.33753,
    "lon": -85.474,
    "retailer": "Walmart"
  },
  {
    "store_name": "Walmart Supercenter",
    "address": "1 One Star Blvd, San Antonio, TX 78264",
    "lat": 29.26267,
    "lon": -98.543,
    "retailer": "Walmart"
  },
  {
    "store_name": "Walmart Supercenter",
    "address": "11550 Coursey Blvd, Baton Rouge, LA 70816",
    "lat": 30.40985,
    "lon": -91.0543,
    "retailer": "Walmart"
  },
  {
    "store_name": "Walmart Supercenter",
    "address": "4924 S Main St, Princeton, IN 47670",
    "lat": 38.2921,
    "lon": -87.564,
    "retailer": "Walmart"
  },
  {
    "store_name": "Walmart Supercenter",
    "address": "2794 Hickory Blvd, Hudson, NC 28638",
    "lat": 35.8591,
    "lon": -81.4833,
    "retailer": "Walmart"
  },
  {
    "store_name": "Walmart Supercenter",
    "address": "3440 S Bryant Blvd, San Angelo, TX 76903",
    "lat": 31.42674,
    "lon": -100.438,
    "retailer": "Walmart"
  },
  {
    "store_name": "Walmart Supercenter",
    "address": "3810 NE Evangeline Trwy, Carencro, LA 70520",
    "lat": 30.3192,
    "lon": -92.0305,
    "retailer": "Walmart"
  },
  {
    "store_name": "Walmart Supercenter",
    "address": "502 SW Port St Lucie Blvd, Port St Lucie, FL 34996",
    "lat": 27.31625,
    "lon": -80.3808,
    "retailer": "Walmart"
  },
  {
    "store_name": "Walmart Supercenter",
    "address": "5401 Palmer Crossing Cir, Sarasota, FL 34233",
    "lat": 27.26673,
    "lon": -82.4627,
    "retailer": "Walmart"
  },
  {
    "store_name": "Walmart Supercenter",
    "address": "12312 Will Clayton Pkwy, Humble, TX 77346",
    "lat": 29.97801,
    "lon": -95.1931,
    "retailer": "Walmart"
  },
  {
    "store_name": "Walmart Supercenter",
    "address": "2551 Classen Blvd, Norman, OK 73071",
    "lat": 35.13334,
    "lon": -97.4221,
    "retailer": "Walmart"
  },
  {
    "store_name": "Walmart Supercenter",
    "address": "5154 Knickerbocker Rd, San Angelo, TX 76904",
    "lat": 31.40897,
    "lon": -100.479,
    "retailer": "Walmart"
  },
  {
    "store_name": "Walmart Supercenter",
    "address": "24919 Westheimer Pkwy, Katy, TX 77494",
    "lat": 29.74399,
    "lon": -95.793,
    "retailer": "Walmart"
  },
  {
    "store_name": "Walmart Supercenter",
    "address": "4535 53rd Ave E, Bradenton, FL 34203",
    "lat": 27.4448,
    "lon": -82.5039,
    "retailer": "Walmart"
  },
  {
    "store_name": "Walmart Supercenter",
    "address": "1001 N Green St, Morganton, NC 28655",
    "lat": 35.75277,
    "lon": -81.7177,
    "retailer": "Walmart"
  },
  {
    "store_name": "Walmart Supercenter",
    "address": "483 Highway 70 SE, Hickory, NC 28602",
    "lat": 35.71924,
    "lon": -81.3479,
    "retailer": "Walmart"
  },
  {
    "store_name": "Walmart Supercenter",
    "address": "75 South Broadview St, Greenbrier, AR 72058",
    "lat": 35.22579,
    "lon": -92.3896,
    "retailer": "Walmart"
  },
  {
    "store_name": "Walmart Supercenter",
    "address": "2675 W 8th St, Yuma, AZ 85364",
    "lat": 32.71239,
    "lon": -114.653,
    "retailer": "Walmart"
  },
  {
    "store_name": "Walmart Supercenter",
    "address": "3301 SW 89th St, Oklahoma City, OK 73159",
    "lat": 35.36559,
    "lon": -97.5766,
    "retailer": "Walmart"
  },
  {
    "store_name": "Walmart Supercenter",
    "address": "2165 Winchester Rd NE, Huntsville, AL 35811",
    "lat": 34.82013,
    "lon": -86.4926,
    "retailer": "Walmart"
  },
  {
    "store_name": "Walmart Supercenter",
    "address": "120 S Odom St, St. Pauls, NC 28384",
    "lat": 34.80865,
    "lon": -78.988,
    "retailer": "Walmart"
  },
  {
    "store_name": "Walmart Supercenter",
    "address": "1826 E Arlington Blvd, Greenville, NC 27858",
    "lat": 35.56732,
    "lon": -77.3579,
    "retailer": "Walmart"
  },
  {
    "store_name": "Walmart Supercenter",
    "address": "5303 a W Maple Ave, Grovetown, GA 30813",
    "lat": 33.45544,
    "lon": -82.208,
    "retailer": "Walmart"
  },
  {
    "store_name": "Walmart Supercenter",
    "address": "4350 Us 70 Business Hwy W, Goldsboro, NC 27534",
    "lat": 35.34487,
    "lon": -77.9169,
    "retailer": "Walmart"
  },
  {
    "store_name": "Walmart Supercenter",
    "address": "1144 Tommys Rd, Goldsboro, NC 27534",
    "lat": 35.41424,
    "lon": -77.9396,
    "retailer": "Walmart"
  },
  {
    "store_name": "Walmart Supercenter",
    "address": "7140 Wall Triana Hwy, Madison, AL 35757",
    "lat": 34.79329,
    "lon": -86.7508,
    "retailer": "Walmart"
  },
  {
    "store_name": "Walmart Supercenter",
    "address": "8208 Barker Cypress Rd, Cypress, TX 77433",
    "lat": 29.89794,
    "lon": -95.6832,
    "retailer": "Walmart"
  },
  {
    "store_name": "Walmart Supercenter",
    "address": "2035 S Soncy Rd, Amarillo, TX 79118",
    "lat": 35.17962,
    "lon": -101.815,
    "retailer": "Walmart"
  },
  {
    "store_name": "Walmart Supercenter",
    "address": "720 W Pipeline Rd, Hurst, TX 76053",
    "lat": 32.82476,
    "lon": -97.184,
    "retailer": "Walmart"
  },
  {
    "store_name": "Walmart Supercenter",
    "address": "7251 Arden Rd, Amarillo, TX 79109",
    "lat": 35.13075,
    "lon": -101.919,
    "retailer": "Walmart"
  },
  {
    "store_name": "Walmart Supercenter",
    "address": "12631 Broadway St, Pearland, TX 77584",
    "lat": 29.55635,
    "lon": -95.4158,
    "retailer": "Walmart"
  },
  {
    "store_name": "Walmart Supercenter",
    "address": "1300 S Walton Blvd, Bentonville, AR 72712",
    "lat": 36.35749,
    "lon": -94.2147,
    "retailer": "Walmart"
  },
  {
    "store_name": "Walmart Supercenter",
    "address": "3704 S Highland Dr, Millcreek, UT 84106",
    "lat": 40.69103,
    "lon": -111.847,
    "retailer": "Walmart"
  },
  {
    "store_name": "Walmart Supercenter",
    "address": "15757 Coit Rd, Dallas, TX 75248",
    "lat": 32.98541,
    "lon": -96.7703,
    "retailer": "Walmart"
  },
  {
    "store_name": "Walmart Supercenter",
    "address": "5596 S Van Winkle Expy, Murray, UT 84117",
    "lat": 40.64983,
    "lon": -111.8924,
    "retailer": "Walmart"
  }
]
